{
  "date": "03-24-2020",
  "country": "Peru",
  "update": "03-23-2020 22:00:00",
  "total": 416,
  "discarded": 6597,
  "active": 389,
  "critics": 19,
  "deceases": 7,
  "recovery": 1,
  "cities": [
    {
      "region"   : "lima",
      "title"    : "Lima",
      "latitude" : -12.0464,
      "longitude": -77.0428,
      "confirmed": 322,
      "deceases": 5,
      "recovery": 1
    },{
      "region" : "loreto",
      "title" : "Loreto",
      "latitude" : -3.74912,
      "longitude" : -73.25383,
      "confirmed" : 16,
      "deceases": 0,
      "recovery": 0
    },{
      "region" : "junin",
      "title": "Junín",
      "latitude" : -12.069156,
      "longitude": -75.208648,
      "confirmed": 10,
      "deceases": 0,
      "recovery": 0
    },{
      "region" : "lambayeque",
      "title": "Lambayeque",
      "latitude" : -6.7011099,
      "longitude": -79.9061127,
      "confirmed": 8,
      "deceases": 0,
      "recovery": 0
    },{
      "region" : "callao",
      "title": "Callao",
      "latitude" : -12.0565901,
      "longitude": -77.1181412,
      "confirmed": 8,
      "deceases": 0,
      "recovery": 0
    },{
      "region" : "ancash",
      "title" : "Áncash",
      "latitude" : -9.1366700,
      "longitude": -77.7602800,
      "confirmed": 4,
      "deceases": 0,
      "recovery": 0
    },{
      "region" : "arequipa",
      "title": "Arequipa",
      "latitude" : -16.3988900,
      "longitude": -71.5350000,
      "confirmed": 9,
      "deceases": 0,
      "recovery": 0
    },{
      "region" : "huanuco",
      "title": "Huánuco",
      "latitude" : -9.925791,
      "longitude": -76.242772,
      "confirmed": 2
    },{
      "region" : "la-libertad",
      "title": "La Libertad",
      "latitude" : -8.1159897,
      "longitude": -79.0299835,
      "confirmed": 5,
      "deceases": 1,
      "recovery": 0
    },{
      "region" : "piura",
      "title": "Piura",
      "latitude" : -5.1944900,
      "longitude": -80.6328200,
      "confirmed": 19,
      "deceases": 1,
      "recovery": 0
    },{
      "region" : "cusco",
      "title": "Cusco",
      "latitude" : -13.516667,
      "longitude": -71.978771,
      "confirmed": 6,
      "deceases": 0,
      "recovery": 0
    },{
      "region" : "ica",
      "title": "Ica",
      "latitude" : -13.71029,
      "longitude": -76.2053833,
      "confirmed": 2,
      "deceases": 0,
      "recovery": 0
    },{
      "region" : "madre-de-dios",
      "title": "Madre de Dios",
      "latitude" : -12.594215,
      "longitude": -69.176401,
      "confirmed": 1,
      "deceases": 0,
      "recovery": 0
    },{
      "region" : "san-martin",
      "title": "San Martín",
      "latitude" : -6.034608,
      "longitude": -76.974733,
      "confirmed": 1,
      "deceases": 0,
      "recovery": 0
    },{
      "region" : "tumbes",
      "title": "Tumbes",
      "latitude" : -3.570698,
      "longitude": -80.459641,
      "confirmed": 3,
      "deceases": 0,
      "recovery": 0
    }
  ]
}